{
  "type": "FeatureCollection",
  "features": [
    {
      "type": "Feature",
      "properties": {
        "category": "restaurant",
        "name": "Ahlqvist, A. A.",
        "address": "L. Heikinkatu 16",
        "phone": "16 67"
      },
      "geometry": {
        "type": "Point",
        "coordinates": [
          24.93998408317566,
          60.16827588534729
        ]
      }
    },
    {
      "type": "Feature",
      "properties": {
        "category": "restaurant",
        "name": "American Bar, (Ravintola Karl König)",
        "address": "Mikonkatu 4",
        "phone": "54 16",
        "owner": "Hans G. Hagen"
      },
      "geometry": {
        "type": "Point",
        "coordinates": [
          24.945284128189087,
          60.168468020610675
        ]
      }
    },
    {
      "type": "Feature",
      "properties": {
        "category": "restaurant",
        "name": "Alppila",
        "address": "Eläintarha, Alppila",
        "phone": "2 93",
        "owner": "Nikolai Noschis"
      },
      "geometry": {
        "type": "Point",
        "coordinates": [
          24.93759155273437,
          60.189036003858675
        ]
      }
    },
    {
      "type": "Feature",
      "properties": {
        "category": "restaurant",
        "name": "Automat Restaurant A-b.",
        "address": "Fabianinkatu 31",
        "phone": "40 84",
        "owner": "toim. joht. Joh. Nyholm"
      },
      "geometry": {
        "type": "Point",
        "coordinates": [
          24.949640035629272,
          60.16870818810989
        ]
      }
    },
    {
      "type": "Feature",
      "properties": {
        "category": "restaurant",
        "name": "Bavaria",
        "address": "Hakasalmenkatu 2",
        "owner": "Alexander Kristopowitsch",
        "phone": "48 72"
      },
      "geometry": {
        "type": "Point",
        "coordinates": [
          24.942408800125122,
          60.16908177850806
        ]
      }
    },
    {
      "type": "Feature",
      "properties": {
        "category": "restaurant",
        "name": "Bodega Española",
        "address": "Etelä-Esplanaadikatu 8",
        "phone": "4 43",
        "owner": "Otto B. Hildén"
      },
      "geometry": {
        "type": "Point",
        "coordinates": [
          24.949049949645996,
          60.16704832797725
        ]
      }
    },
    {
      "type": "Feature",
      "properties": {
        "category": "restaurant",
        "name": "Bodega Kaeding",
        "address": "Etelä-Esplanaadikatu 8",
        "phone": "23 73",
        "owner": "neiti Nanny Kaeding"
      },
      "geometry": {
        "type": "Point",
        "coordinates": [
          24.949318170547485,
          60.167064339890324
        ]
      }
    },
    {
      "type": "Feature",
      "properties": {
        "category": "restaurant",
        "name": "Bodega Marcus",
        "address": "Unioninkatu 14",
        "owner": "rouva Emmy Modin",
        "phone": "21 58"
      },
      "geometry": {
        "type": "Point",
        "coordinates": [
          24.951142072677612,
          60.16503076449819
        ]
      }
    },
    {
      "type": "Feature",
      "properties": {
        "category": "restaurant",
        "name": "Conditori Catani",
        "address": "Pohjois Esplanaadikatu 31",
        "phone": "9 58",
        "owner": "John Catani"
      },
      "geometry": {
        "type": "Point",
        "coordinates": [
          24.946646690368652,
          60.16795032025273
        ]
      }
    },
    {
      "type": "Feature",
      "properties": {
        "category": "restaurant",
        "name": "Du Rom",
        "address": "Kirkkokatu 14",
        "phone": "45 38",
        "owner": "rva. Amalia Rolig"
      },
      "geometry": {
        "type": "Point",
        "coordinates": [
          24.954253435134888,
          60.17073086250153
        ]
      }
    },
    {
      "type": "Feature",
      "properties": {
        "category": "restaurant",
        "name": "Ek'n Ravintola",
        "address": "Läntinen Heikinkatu 12",
        "phone": "23 46",
        "owner": "Fr. Wissotzky"
      },
      "geometry": {
        "type": "Point",
        "coordinates": [
          24.941035509109494,
          60.16756604254744
        ]
      }
    },
    {
      "type": "Feature",
      "properties": {
        "category": "restaurant",
        "name": "Erottajan Ravintola",
        "address": "Läntinen Heikinkatu 4",
        "phone": "37 25",
        "owner": "E. H. Nummelin"
      },
      "geometry": {
        "type": "Point",
        "coordinates": [
          24.94324564933777,
          60.16627974697341
        ]
      }
    },
    {
      "type": "Feature",
      "properties": {
        "category": "restaurant",
        "name": "Esplanadi-Kappeli",
        "address": "",
        "phone": "2 77, 40 86, 10 89",
        "owner": "Oscar Carlsson"
      },
      "geometry": {
        "type": "Point",
        "coordinates": [
          24.950315952301025,
          60.167432611737475
        ]
      }
    },
    {
      "type": "Feature",
      "properties": {
        "category": "restaurant",
        "name": "Ravintola",
        "address": "Fabianinkatu 14",
        "phone": "41 34",
        "owner": "nti. Sofia Forss"
      },
      "geometry": {
        "type": "Point",
        "coordinates": [
          24.94909286499023,
          60.16833993055992
        ]
      }
    },
    {
      "type": "Feature",
      "properties": {
        "category": "restaurant",
        "name": "Ravintola",
        "address": "Uudenmaankatu 13",
        "phone": "68 10",
        "owner": "rva. Dorothea Friskberg"
      },
      "geometry": {
        "type": "Point",
        "coordinates": [
          24.940863847732544,
          60.164705167248556
        ]
      }
    },
    {
      "type": "Feature",
      "properties": {
        "category": "restaurant",
        "name": "Gambrini",
        "address": "Fabianinkatu 29",
        "phone": 57,
        "owner": "rva. N. Nikolajeff"
      },
      "geometry": {
        "type": "Point",
        "coordinates": [
          24.94969367980957,
          60.16839330147509
        ]
      }
    },
    {
      "type": "Feature",
      "properties": {
        "category": "restaurant",
        "name": "Gloet",
        "address": "Kluuvikatu 7",
        "phone": "1 96",
        "owner": "leski:rva Charlotta Ahlfors"
      },
      "geometry": {
        "type": "Point",
        "coordinates": [
          24.947590827941895,
          60.16957811346602
        ]
      }
    },
    {
      "type": "Feature",
      "properties": {
        "category": "restaurant",
        "name": "Ravintola",
        "address": "Erottajankatu 7",
        "phone": "8 36",
        "owner": "leski:rva Vilhelmina Gorbatoff"
      },
      "geometry": {
        "type": "Point",
        "coordinates": [
          24.944382905960083,
          60.16486529744662
        ]
      }
    },
    {
      "type": "Feature",
      "properties": {
        "category": "restaurant",
        "name": "Ravintola",
        "address": "Annankatu 21",
        "phone": "16 46",
        "owner": "rva. Anna J. Harjanne"
      },
      "geometry": {
        "type": "Point",
        "coordinates": [
          24.937387704849243,
          60.16673876279075
        ]
      }
    },
    {
      "type": "Feature",
      "properties": {
        "category": "restaurant",
        "name": "Hermes Ravintola",
        "address": "Aleksanterinkatu 19",
        "phone": "28 47",
        "owner": "rva. Vilhelmina Söderström"
      },
      "geometry": {
        "type": "Point",
        "coordinates": [
          24.942140579223633,
          60.16893767985773
        ]
      }
    },
    {
      "type": "Feature",
      "properties": {
        "category": "restaurant",
        "name": "Ravintola",
        "address": "Mikonkatu 20",
        "phone": "19 05, 5 59",
        "owner": "nti. Mia Hiltunen"
      },
      "geometry": {
        "type": "Point",
        "coordinates": [
          24.944844245910645,
          60.172486592339105
        ]
      }
    },
    {
      "type": "Feature",
      "properties": {
        "category": "restaurant,hotel",
        "name": "Hotelli Fennia",
        "address": "Mikonkatu 21",
        "phone": "ovenvartija 19 21, matkust:huon 45 03",
        "owner": "joht. K. E. Jonsson"
      },
      "geometry": {
        "type": "Point",
        "coordinates": [
          24.94569182395935,
          60.171515349131916
        ]
      }
    },
    {
      "type": "Feature",
      "properties": {
        "category": "restaurant",
        "name": "Kaisaniemen ravintola",
        "address": "Kaisaniemi",
        "phone": "2 23",
        "owner": "G. A. Wickström"
      },
      "geometry": {
        "type": "Point",
        "coordinates": [
          24.941303730010986,
          60.1767181026212
        ]
      }
    },
    {
      "type": "Feature",
      "properties": {
        "category": "restaurant,hotel",
        "name": "Hotelli Kaleva",
        "address": "Läntinen Heikinkatu 14",
        "phone": "ovenvartija 9 29, ravintola 34 05",
        "owner": "O. Bengtson"
      },
      "geometry": {
        "type": "Point",
        "coordinates": [
          24.940563440322876,
          60.16787026276809
        ]
      }
    },
    {
      "type": "Feature",
      "properties": {
        "category": "restaurant",
        "name": "Kaivohuone",
        "address": "Kaivopuisto",
        "phone": "25 07",
        "owner": "Nils Bengtson"
      },
      "geometry": {
        "type": "Point",
        "coordinates": [
          24.955916404724118,
          60.15766400480773
        ]
      }
    }
  ]
}
